[{"name":"지로우라멘","lat":37.5536583,"lng":126.9229494,"menu":"일식"},{"name":"오복수산","lat":37.5376784,"lng":127.0018967,"menu":"일식"},{"name":"스시코테이","lat":37.5276863,"lng":127.031121,"menu":"일식"},{"name":"호별관","lat":37.5095451,"lng":127.03487724,"menu":"일식"},{"name":"타지팰리스","lat":37.54450731,"lng":126.9915116,"menu":"카레"},{"name":"죠티인도","lat":37.5550446,"lng":126.9379293,"menu":"카레"},{"name":"예티 인도","lat":37.5655634,"lng":126.9233787,"menu":"카레"}]